id,name,lat,lon
0,La Défense Grande Arche,48.89194444,2.237777778
1,Esplanade de La Défense,48.88777778,2.250555556
2,Pont de Neuilly,48.88444444,2.26
3,Les Sablons Jardin d'Acclimatation,48.88083333,2.2725
4,Porte Maillot Palais des Congrès,48.87805556,2.281944444
5,Argentine,48.87555556,2.289444444
6,Charles de Gaulle - Étoile,48.87444444,2.295833333
7,George V,48.87194444,2.300555556
8,Franklin D. Roosevelt,48.86916667,2.308333333
9,Champs-Élysées - Clemenceau,48.8675,2.313888889
10,Concorde,48.86611111,2.3225
11,Tuileries,48.86444444,2.330277778
12,Palais-Royal - Musée du Louvre,48.86277778,2.335833333
13,Louvre - Rivoli,48.86111111,2.340277778
14,Châtelet,48.85861111,2.347222222
15,Hôtel de Ville,48.85666667,2.351388889
16,Saint-Paul Le Marais,48.85527778,2.360555556
17,Bastille,48.85305556,2.369166667
18,Gare de Lyon,48.84472222,2.374166667
19,Reuilly - Diderot,48.84722222,2.386666667
20,Nation,48.84833333,2.395833333
21,Porte de Vincennes,48.84722222,2.408888889
22,Saint-Mandé,48.84638889,2.418611111
23,Bérault,48.84527778,2.429166667
24,Château de Vincennes,48.84444444,2.439444444
25,Porte Dauphine,48.87146658,2.277083017
26,Victor Hugo,48.86979856,2.285335095
27,Charles de Gaulle - Étoile,48.87423848,2.294490591
28,Ternes,48.8779727,2.298310375
29,Courcelles,48.87921413,2.303528725
30,Monceau,48.88044946,2.309451168
31,Villiers,48.88115003,2.315176626
32,Rome,48.8822269,2.321274927
33,Place de Clichy,48.88343001,2.327228336
34,Blanche,48.88395857,2.33192659
35,Pigalle,48.88244269,2.337085137
36,Anvers,48.88286865,2.344130634
37,Sacré-Cœur,0,0
38,Barbès - Rochechouart,48.88373447,2.349636148
39,La Chapelle,48.8843988,2.360491319
40,Stalingrad,48.88399522,2.368912703
41,Jaurès,48.88273813,2.370122312
42,Colonel Fabien,48.87761019,2.370811395
43,Belleville,48.87199369,2.377029777
44,Couronnes,48.86909116,2.380542586
45,Ménilmontant,48.86680004,2.38338325
46,Père Lachaise,48.86294983,2.387434951
47,Philippe Auguste,48.85846655,2.389729852
48,Alexandre Dumas,48.85637736,2.394561945
49,Avron,48.85151028,2.398302344
50,Nation,48.84823711,2.395823589
51,Pont de Levallois - Bécon,48.89782107,2.279809587
52,Anatole France,48.89208279,2.285009503
53,Louise Michel,48.88870602,2.288083633
54,Porte de Champerret,48.88579311,2.292582314
55,Pereire Maréchal Juin,48.88502842,2.297362301
56,Wagram,48.8838092,2.304674441
57,Malesherbes,48.88289192,2.309052265
58,Villiers,48.88115003,2.315176626
59,Europe Simone Veil,48.87877037,2.322265213
60,Saint-Lazare,48.87593315,2.325727961
61,Havre - Caumartin,48.87380673,2.326999859
62,Opéra,48.87067768,2.332354639
63,Quatre-Septembre,48.86958524,2.336218848
64,Bourse,48.86869598,2.340720724
65,Sentier,48.86730948,2.347516213
66,Réaumur - Sébastopol,48.86623513,2.352549304
67,Arts et Métiers,48.86558648,2.356736757
68,Temple,48.86668268,2.361541532
69,République,48.86750342,2.363826144
70,Parmentier,48.86525379,2.37458197
71,Rue Saint-Maur,48.86408657,2.380797986
72,Père Lachaise,48.86294983,2.387434951
73,Gambetta,48.86491669,2.39898444
74,Porte de Bagnolet,48.86458519,2.408759948
75,Gallieni,48.86533532,2.416697273
76,Parc de Bagnolet,0,0
77,Gambetta,48.865,2.398333333
78,Pelleport,48.86861111,2.401666667
79,Saint-Fargeau,48.87194444,2.404444444
80,Porte des Lilas,48.87722222,2.406666667
81,Porte de Clignancourt,48.89722222,2.344722222
82,Simplon,48.89472222,2.347222222
83,Marcadet - Poissonniers,48.89138889,2.349722222
84,Château Rouge,48.88722222,2.349444444
85,Barbès - Rochechouart,48.88361111,2.350555556
86,Gare du Nord,48.88027778,2.355
87,Gare de l'Est,48.87611111,2.358055556
88,Château d'Eau,48.8725,2.355833333
89,Strasbourg - Saint-Denis,48.86944444,2.354166667
90,Réaumur - Sébastopol,48.86638889,2.3525
91,Étienne Marcel,48.86388889,2.349166667
92,Les Halles,48.8625,2.346111111
93,Châtelet,48.85861111,2.347222222
94,Cité,48.85583333,2.346111111
95,Saint-Michel,48.85361111,2.343888889
96,Odéon,48.85222222,2.338888889
97,Saint-Germain-des-Prés,48.85388889,2.333333333
98,Saint-Sulpice,48.85138889,2.331111111
99,Saint-Placide,48.84694444,2.326944444
100,Montparnasse - Bienvenüe,48.84333333,2.323055556
101,Vavin,48.84222222,2.329444444
102,Raspail,48.83888889,2.330833333
103,Denfert-Rochereau,48.83388889,2.3325
104,Mouton-Duvernet,48.83222222,2.330277778
105,Alésia,48.82833333,2.326944444
106,Porte d'Orléans,48.82305556,2.325833333
107,Mairie de Montrouge,48.81833333,2.319444444
108,Bobigny - Pablo Picasso Préfecture - Hôtel du Département,48.90637477,2.449189904
109,Bobigny - Pantin - Raymond Queneau,48.89545467,2.425326892
110,Église de Pantin,48.89325759,2.41331314
111,Hoche,48.89122859,2.402352147
112,Porte de Pantin Parc de la Villette,48.88947266,2.395795328
113,Ourcq,48.88713487,2.386960017
114,Laumière,48.88521618,2.379663082
115,Jaurès,48.88273813,2.370122312
116,Stalingrad,48.88399522,2.368912703
117,Gare du Nord,48.88092201,2.356328544
118,Gare de l'Est,48.87737562,2.359456617
119,Jacques Bonsergent,48.87080998,2.361027463
120,République,48.86750342,2.363826144
121,Oberkampf,48.86472762,2.368496387
122,Richard-Lenoir,48.85987362,2.371913979
123,Bréguet - Sabin,48.85614071,2.370209341
124,Bastille,48.85343696,2.368736573
125,Quai de la Rapée,48.84651541,2.365873467
126,Gare d'Austerlitz,48.84236008,2.365581704
127,Saint-Marcel,48.8384273,2.360967166
128,Campo-Formio,48.83549536,2.35882349
129,Place d'Italie,48.8309953,2.355834898
130,Charles de Gaulle - Étoile,48.87423848,2.294490591
131,Kléber,48.87164977,2.29352429
132,Boissière,48.86698311,2.290058834
133,Trocadéro,48.86307378,2.287166876
134,Passy,48.85744869,2.285812444
135,Bir-Hakeim Tour Eiffel,48.85394261,2.289334533
136,Dupleix,48.85043455,2.293612434
137,La Motte-Picquet - Grenelle,48.84906456,2.297916592
138,Cambronne,48.84750708,2.302968296
139,Sèvres - Lecourbe,48.84562697,2.309531493
140,Pasteur,48.84292062,2.31260705
141,Montparnasse - Bienvenüe,48.84118692,2.320509228
142,Edgar Quinet,48.84066323,2.326384611
143,Raspail,48.83896428,2.330754192
144,Denfert-Rochereau,48.83429298,2.33285231
145,Saint-Jacques,48.83290082,2.337135195
146,Glacière,48.83112955,2.343511658
147,Corvisart,48.82979051,2.350414871
148,Place d'Italie,48.8309953,2.355834898
149,Nationale,48.83321672,2.3628564
150,Chevaleret,48.83494772,2.368126329
151,Quai de la Gare,48.83704512,2.372825725
152,Bercy,48.84030209,2.379121776
153,Dugommier,48.83904114,2.389620015
154,Daumesnil,48.8395672,2.395952927
155,Bel-Air,48.84133825,2.400918537
156,Picpus,48.84506158,2.40128902
157,Nation,48.84823711,2.395823589
158,La Courneuve - 8 Mai 1945,48.92083333,2.410555556
159,Fort d'Aubervilliers,48.91416667,2.404166667
160,Aubervilliers - Pantin - Quatre Chemins,48.90388889,2.3925
161,Porte de la Villette Cité des Sciences et de l'Industrie,48.89694444,2.385833333
162,Corentin Cariou,48.89472222,2.3825
163,Crimée,48.89138889,2.377222222
164,Riquet,48.88833333,2.374166667
165,Stalingrad,48.88416667,2.368611111
166,Louis Blanc,48.88138889,2.365277778
167,Château-Landon,48.87861111,2.361944444
168,Gare de l'Est,48.87611111,2.358055556
169,Poissonnière,48.87694444,2.349166667
170,Cadet,48.87583333,2.343055556
171,Le Peletier,48.875,2.340555556
172,Chaussée d'Antin - La Fayette,48.87277778,2.333333333
173,Opéra,48.87055556,2.332777778
174,Pyramides,48.86638889,2.333888889
175,Palais-Royal - Musée du Louvre,48.86277778,2.336111111
176,Pont-Neuf,48.85861111,2.342222222
177,Châtelet,48.85861111,2.347222222
178,Pont Marie Cité des Arts,48.85361111,2.357222222
179,Sully - Morland,48.85111111,2.3625
180,Jussieu,48.84583333,2.354722222
181,Place Monge Jardin des Plantes - Arènes de Lutèce,48.84333333,2.3525
182,Censier - Daubenton,48.84055556,2.351666667
183,Les Gobelins,48.83666667,2.351944444
184,Place d'Italie,48.83138889,2.355833333
185,Tolbiac,48.82611111,2.356944444
186,Maison Blanche,48.82222222,2.358611111
187,Le Kremlin-Bicêtre,48.81027778,2.361944444
188,Villejuif - Léo Lagrange,48.80472222,2.363611111
189,Villejuif - Paul Vaillant-Couturier Hôpital Paul Brousse,48.79638889,2.368055556
190,Villejuif - Louis Aragon,48.78694444,2.367222222
191,Porte d'Italie,48.81916667,2.359444444
192,Porte de Choisy,48.82,2.364444444
193,Porte d'Ivry,48.82166667,2.369166667
194,Pierre et Marie Curie,48.81583333,2.3775
195,Mairie d'Ivry,48.81111111,2.382777778
196,Louis Blanc,48.88158425,2.365921037
197,Jaurès,48.88273813,2.370122312
198,Bolivar,48.88082126,2.374147154
199,Buttes Chaumont,48.87851411,2.381614513
200,Botzaris,48.87948177,2.389115807
201,Danube,48.881932,2.393445452
202,Place des Fêtes,48.87680639,2.393056093
203,Pré-Saint-Gervais,48.87999579,2.398946662
204,Balard,48.83609678,2.278237952
205,Lourmel,48.83896094,2.282700027
206,Boucicaut,48.84109406,2.287945767
207,Félix Faure,48.84274678,2.291912413
208,Commerce,48.84479476,2.293951964
209,La Motte-Picquet - Grenelle,48.84906456,2.297916592
210,École Militaire,48.85468216,2.306097404
211,La Tour-Maubourg,48.85772541,2.310565961
212,Invalides,48.86290184,2.313908906
213,Concorde,48.8662858,2.322943412
214,Madeleine,48.87009973,2.32516411
215,Opéra,48.87067768,2.332354639
216,Richelieu - Drouot,48.87201346,2.340051786
217,Grands Boulevards,48.87149774,2.343154773
218,Bonne-Nouvelle,48.8701642,2.350497972
219,Strasbourg - Saint-Denis,48.86929401,2.354280879
220,République,48.86750342,2.363826144
221,Filles du Calvaire,48.86325795,2.366661095
222,Saint-Sébastien - Froissart,48.86116887,2.367210866
223,Chemin Vert,48.85742004,2.368108291
224,Bastille,48.85343696,2.368736573
225,Ledru-Rollin,48.85127113,2.376118775
226,Faidherbe - Chaligny,48.85017786,2.38409221
227,Reuilly - Diderot,48.84735452,2.386808446
228,Montgallet,48.84440867,2.390075113
229,Daumesnil,48.8395672,2.395952927
230,Michel Bizot,48.83711701,2.402333166
231,Porte Dorée,48.83476446,2.405349343
232,Porte de Charenton,48.83230496,2.39918151
233,Liberté,48.826055,2.406742223
234,Charenton - Écoles,48.82159577,2.413737516
235,École vétérinaire de Maisons-Alfort,48.81480301,2.422376143
236,Maisons-Alfort - Stade,48.80914436,2.434509896
237,Maisons-Alfort - Les Juilliottes,48.80263769,2.446927484
238,Créteil - L'Échat Hôpital Henri Mondor,48.79674077,2.449433176
239,Créteil - Université,48.78997831,2.450453178
240,Créteil - Préfecture Hôtel de Ville,48.77990532,2.459368396
241,Pointe du Lac,48.76871513,2.464564993
242,Pont de Sèvres,48.82967484,2.230799591
243,Billancourt,48.83211056,2.238639349
244,Marcel Sembat,48.83370885,2.243840595
245,Porte de Saint-Cloud Parc des Princes,48.83796121,2.25712223
246,Exelmans,48.8429387,2.260032902
247,Michel-Ange - Molitor,48.84524119,2.261893642
248,Michel-Ange - Auteuil,48.8479431,2.264130427
249,Jasmin,48.85250409,2.268176749
250,Ranelagh,48.85548505,2.270109139
251,La Muette,48.85804606,2.274154628
252,Rue de la Pompe,48.86397445,2.278112563
253,Trocadéro,48.86307378,2.287166876
254,Iéna,48.86479406,2.294162014
255,Alma - Marceau,48.86476685,2.300991004
256,Franklin D. Roosevelt,48.86902653,2.309935389
257,Saint-Philippe du Roule,48.87242238,2.310038345
258,Miromesnil,48.87368521,2.31446799
259,Saint-Augustin,48.87455838,2.321361928
260,Havre - Caumartin,48.87380673,2.326999859
261,Chaussée d'Antin - La Fayette,48.87296814,2.333257092
262,Richelieu - Drouot,48.87201346,2.340051786
263,Grands Boulevards,48.87149774,2.343154773
264,Bonne-Nouvelle,48.8701642,2.350497972
265,Strasbourg - Saint-Denis,48.86929401,2.354280879
266,République,48.86750342,2.363826144
267,Oberkampf,48.86472762,2.368496387
268,Saint-Ambroise,48.86101926,2.374733431
269,Voltaire,48.85745372,2.380718786
270,Charonne,48.8545805,2.385563481
271,Rue des Boulets,48.85231543,2.389378128
272,Nation,48.84823711,2.395823589
273,Buzenval,48.85181213,2.401022271
274,Maraîchers,48.85272512,2.406089163
275,Porte de Montreuil,48.85354392,2.410626426
276,Robespierre,48.85572643,2.422983216
277,Croix de Chavaux,48.85796559,2.43555572
278,Mairie de Montreuil,48.86193691,2.44131094
279,Boulogne - Pont de Saint-Cloud,48.84074502,2.228536982
280,Boulogne - Jean Jaurès,48.84200535,2.238887329
281,Porte d'Auteuil,48.84797154,2.25774468
282,Michel-Ange - Molitor,48.84524119,2.261893642
283,Michel-Ange - Auteuil,48.8479431,2.264130427
284,Chardon-Lagache,48.8452047,2.26644154
285,Église d'Auteuil,48.84715006,2.269135873
286,Mirabeau,48.84713101,2.272763753
287,Javel - André Citroën,48.84619214,2.276760967
288,Charles Michels,48.84653464,2.285999222
289,Avenue Émile-Zola,48.84701958,2.295420478
290,La Motte-Picquet - Grenelle,48.84906456,2.297916592
291,Ségur,48.84706613,2.307402241
292,Duroc,48.84685485,2.316634671
293,Vaneau,48.84881637,2.321257863
294,Sèvres - Babylone,48.85137883,2.326935245
295,Mabillon,48.85301677,2.33550205
296,Odéon,48.85216726,2.339646336
297,Cluny - La Sorbonne,48.85105028,2.344273345
298,Maubert - Mutualité,48.85012732,2.348054293
299,Cardinal Lemoine,48.84665685,2.351623256
300,Jussieu,48.84615112,2.354917984
301,Gare d'Austerlitz,48.84236008,2.365581704
302,Châtelet,48.85861111,2.347222222
303,Hôtel de Ville,48.85666667,2.351388889
304,Rambuteau Centre Georges Pompidou,48.86194444,2.353888889
305,Arts et Métiers,48.86555556,2.356111111
306,République,48.8675,2.363888889
307,Goncourt Hôpital Saint-Louis,48.86972222,2.370555556
308,Belleville,48.87194444,2.376944444
309,Pyrénées,48.87388889,2.385277778
310,Jourdain,48.87527778,2.389444444
311,Place des Fêtes,48.87694444,2.393055556
312,Télégraphe,48.87555556,2.398333333
313,Porte des Lilas,48.87722222,2.406666667
314,Mairie des Lilas,48.87972222,2.416388889
315,Aubervilliers - Saint-Denis Front Populaire,48.90666667,2.365833333
316,Porte de la Chapelle,48.89722222,2.359166667
317,Marx Dormoy,48.89055556,2.36
318,Marcadet - Poissonniers,48.89027778,2.35
319,Jules Joffrin,48.8925,2.344722222
320,Lamarck - Caulaincourt,48.88972222,2.338611111
321,Abbesses Butte Montmartre,48.88444444,2.338611111
322,Pigalle,48.88222222,2.3375
323,Saint-Georges,48.87833333,2.3375
324,Notre-Dame-de-Lorette,48.87611111,2.338611111
325,Trinité - d'Estienne d'Orves,48.87638889,2.333333333
326,Saint-Lazare,48.87555556,2.326111111
327,Madeleine,48.86972222,2.324444444
328,Concorde,48.86611111,2.3225
329,Assemblée nationale,48.86055556,2.321111111
330,Solférino Musée d'Orsay,48.85833333,2.323333333
331,Rue du Bac,48.85555556,2.325555556
332,Sèvres - Babylone,48.85138889,2.326666667
333,Rennes,48.84805556,2.327777778
334,Notre-Dame-des-Champs,48.84444444,2.328888889
335,Montparnasse - Bienvenüe,48.84333333,2.323055556
336,Falguière,48.84444444,2.318055556
337,Pasteur,48.84277778,2.312777778
338,Volontaires,48.84138889,2.3075
339,Vaugirard,48.83972222,2.301388889
340,Convention,48.8375,2.296666667
341,Porte de Versailles Parc des Expositions,48.83222222,2.287777778
342,Corentin Celton,48.82694444,2.278888889
343,Mairie d'Issy,48.82416667,2.273333333
344,Asnières - Gennevilliers Les Courtilles,48.930757,2.284174448
345,Les Agnettes,48.92310378,2.286279578
346,Gabriel Péri,48.91638231,2.294685112
347,Mairie de Clichy,48.90333009,2.30592415
348,Porte de Clichy,48.89416839,2.315599219
349,Brochant,48.89058719,2.320174756
350,Saint-Denis - Université,48.94584566,2.364541762
351,Basilique de Saint-Denis Hôtel de Ville,48.93730474,2.360072142
352,Saint-Denis - Porte de Paris Stade de France,48.92993589,2.356035796
353,Carrefour Pleyel,48.91957307,2.343305928
354,Mairie de Saint-Ouen,48.9119649,2.33392489
355,Garibaldi,48.90609405,2.331830838
356,Porte de Saint-Ouen,48.8973748,2.328942813
357,Guy Môquet,48.89282885,2.327428459
358,La Fourche,48.88718395,2.325779675
359,Place de Clichy,48.88343001,2.327228336
360,Liège,48.87963476,2.327022201
361,Saint-Lazare,48.87593315,2.325727961
362,Miromesnil,48.87368521,2.31446799
363,Champs-Élysées - Clemenceau,48.86779973,2.313881938
364,Invalides,48.86290184,2.313908906
365,Varenne,48.85687138,2.315056637
366,Saint-François-Xavier,48.85144171,2.314408121
367,Duroc,48.84685485,2.316634671
368,Montparnasse - Bienvenüe,48.84118692,2.320509228
369,Gaîté,48.83863165,2.322491748
370,Pernety,48.83393639,2.318078284
371,Plaisance,48.83182565,2.314122323
372,Porte de Vanves,48.82770461,2.305340931
373,Malakoff - Plateau de Vanves,48.82258371,2.298464195
374,Malakoff - Rue Étienne-Dolet,48.81530753,2.297077797
375,Châtillon - Montrouge,48.81074649,2.301678557
376,Saint-Lazare,48.87555556,2.326111111
377,Madeleine,48.87,2.325277778
378,Pyramides,48.86694444,2.333611111
379,Châtelet,48.85861111,2.347222222
380,Gare de Lyon,48.84472222,2.374166667
381,Bercy,48.84055556,2.379444444
382,Cour Saint-Émilion,48.83361111,2.3875
383,Bibliothèque François-Mitterrand,48.82972222,2.376111111
384,Olympiades,48.82694444,2.367222222
385,Cergy-le-Haut,49.0478762,2.01099976
386,Cergy-Saint-Christophe,49.04964701,2.034294463
387,Cergy-Préfecture,49.03646398,2.079534941
388,Neuville-Université,49.01413369,2.078306591
389,Conflans-Fin-d'Oise,48.99189837,2.07362062
390,Achères-Ville,48.97066505,2.077731766
391,Poissy,48.93326541,2.04107229
392,Achères - Grand-Cormier,48.95540224,2.093521903
393,Maisons-Laffitte,48.94579593,2.144558757
394,Sartrouville,48.93773606,2.157086495
395,Houilles - Carrières-sur-Seine,48.92037937,2.185353376
396,Saint-Germain-en-Laye,48.89807641,2.094836628
397,Le Vésinet - Le Pecq,48.89797345,2.122117446
398,Le Vésinet-Centre,48.89008624,2.134600874
399,Chatou - Croissy,48.88521122,2.155903475
400,Rueil-Malmaison,48.88757362,2.172579449
401,Nanterre-Ville,48.89512589,2.195363987
402,Nanterre-Université,48.90165507,2.215155873
403,Nanterre-Préfecture,48.89574531,2.223212967
404,La Défense Grande Arche,48.89218708,2.237018056
405,Charles de Gaulle - Étoile,48.87423848,2.294490591
406,Auber,48.87215749,2.329927171
407,Châtelet - Les Halles,48.86182227,2.347012689
408,Gare de Lyon,48.84413935,2.373259978
409,Nation,48.84823711,2.395823589
410,Vincennes,48.84730836,2.433299722
411,Fontenay-sous-Bois,48.84372026,2.463708038
412,Nogent-sur-Marne,48.8342889,2.471681241
413,Joinville-le-Pont,48.82103882,2.463856797
414,Saint-Maur - Créteil,48.80620002,2.472720404
415,Le Parc de Saint-Maur,48.80537766,2.486349753
416,Champigny Saint-Maur,48.80698507,2.510307236
417,La Varenne - Chennevières,48.79538384,2.513423301
418,Sucy - Bonneuil,48.77170791,2.507482646
419,Boissy-Saint-Léger,48.75218572,2.504559837
420,Val de Fontenay,48.8543531,2.489137306
421,Neuilly-Plaisance,48.85348571,2.513825291
422,Bry-sur-Marne,48.84490114,2.525922545
423,Noisy-le-Grand - Mont d'Est,48.84084343,2.547775189
424,Noisy - Champs Champy - Nesles,48.84288484,2.580085917
425,Noisiel Le Luzard,48.84349165,2.615952483
426,Lognes Le Mandinet,48.8392193,2.633210918
427,Torcy,48.83964552,2.655130087
428,Bussy-Saint-Georges,48.83653643,2.708981741
429,Serris - Montévrain Val d'Europe,48.85539481,2.773433919
430,Marne-la-Vallée - Chessy Parcs Disneyland,48.86995013,2.782226723
431,Aéroport Charles-de-Gaulle 2 TGV,49.00468746,2.570589486
432,Aéroport Charles-de-Gaulle 1,49.00975645,2.561232695
433,Parc des Expositions,48.97342491,2.514360286
434,Villepinte,48.96270952,2.512644626
435,Sevran - Beaudottes,48.94760756,2.524716389
436,Mitry - Claye,48.97585875,2.642406302
437,Villeparisis - Mitry-le-Neuf,48.95314839,2.603135311
438,Vert-Galant,48.94418107,2.566448016
439,Sevran - Livry,48.93628018,2.534714973
440,Aulnay-sous-Bois,48.93219601,2.495513141
441,Le Blanc-Mesnil,48.93230542,2.475674372
442,Drancy,48.93270622,2.454766386
443,Le Bourget,48.93073957,2.425791424
444,La Courneuve - Aubervilliers,48.92435388,2.386388286
445,La Plaine - Stade de France Saint-Denis - Aubervilliers,48.9181138,2.362665597
446,Gare du Nord,48.88092201,2.356328544
447,Châtelet - Les Halles,48.86182227,2.347012689
448,Saint-Michel - Notre-Dame,48.8532519,2.34466048
449,Luxembourg Sénat,48.84574307,2.339927998
450,Port-Royal,48.84003379,2.337096431
451,Denfert-Rochereau,48.83429298,2.33285231
452,Cité Universitaire,48.82026761,2.33897518
453,Gentilly,48.81522993,2.340891134
454,Laplace,48.80829659,2.334354311
455,Arcueil - Cachan,48.7988925,2.328136923
456,Bagneux,48.7933363,2.322201636
457,Bourg-la-Reine,48.7803138,2.312307717
458,Sceaux,48.78135672,2.297647676
459,Fontenay-aux-Roses,48.78761468,2.292492976
460,Robinson,48.7802373,2.281430595
461,Parc de Sceaux,48.77072199,2.310205452
462,La Croix de Berny,48.76169369,2.304227348
463,Antony,48.75494653,2.300986854
464,Fontaine Michalon,48.74337341,2.296393163
465,Les Baconnets,48.73968104,2.287667497
466,Massy - Verrières,48.73471659,2.273483464
467,Massy - Palaiseau,48.72469124,2.258277462
468,Palaiseau,48.71694629,2.245672516
469,Palaiseau - Villebon,48.70814059,2.237314366
470,Lozère École polytechnique,48.70596899,2.212262375
471,Le Guichet,48.70540392,2.192734885
472,Orsay-Ville,48.69750567,2.181054439
473,Bures-sur-Yvette,48.69625275,2.164378243
474,La Hacquinière,48.69526412,2.15164204
475,Gif-sur-Yvette,48.69819698,2.136566714
476,Courcelle-sur-Yvette,48.70121772,2.097975861
477,Saint-Rémy-lès-Chevreuse,48.70275104,2.071242848
478,Pontoise,49.04664576,2.095195067
479,Saint-Ouen-l'Aumône,49.04531165,2.10511071
480,Saint-Ouen-l'Aumône-Liesse,49.03398764,2.128263873
481,Pierrelaye,49.01913674,2.154663477
482,Montigny - Beauchamp,49.0074233,2.197619807
483,Franconville - Le Plessis-Bouchard,48.99371348,2.234276395
484,Cernay,48.9850047,2.257474156
485,Ermont - Eaubonne,48.9806461,2.272084773
486,Saint-Gratien,48.96358968,2.28593072
487,Épinay-sur-Seine,48.95339647,2.30234042
488,Gennevilliers,48.93332606,2.307731819
489,Les Grésillons,48.9208728,2.313835382
490,Saint-Ouen,48.90565496,2.322400403
491,Porte de Clichy,48.89416839,2.315599219
492,Pereire - Levallois,48.88502842,2.297362301
493,Neuilly - Porte Maillot,48.8773496,2.283795557
494,Avenue Foch,48.87097414,2.275574527
495,Avenue Henri-Martin,48.86446175,2.272120622
496,Boulainvilliers,48.85653155,2.275167155
497,Avenue du Président-Kennedy,48.85364805,2.279487072
498,Saint-Quentin-en-Yvelines Montigny-le-Bretonneux,48.78739024,2.04462199
499,Saint-Cyr,48.79870764,2.071847
500,Versailles-Chantiers,48.79528025,2.13605049
501,Versailles-Château-Rive-Gauche,48.80021558,2.129043867
502,Porchefontaine,48.79652818,2.152378655
503,Viroflay-Rive-Gauche,48.80071846,2.171389814
504,Chaville - Vélizy,48.79944444,2.184166667
505,Meudon-Val-Fleury,48.80749262,2.240883067
506,Issy,48.81967449,2.258759767
507,Issy - Val de Seine,48.83011964,2.263689649
508,Pont du Garigliano Hôpital Européen Georges-Pompidou,48.83908976,2.270458244
509,Javel,48.84619214,2.276760967
510,Champ de Mars - Tour Eiffel,48.85729342,2.290391555
511,Pont de l'Alma,48.86266245,2.300989964
512,Invalides,48.86290184,2.313908906
513,Musée d'Orsay,48.86070823,2.325620292
514,Saint-Michel - Notre-Dame,48.8532519,2.34466048
515,Paris-Austerlitz,48.84236008,2.365581704
516,Bibliothèque François-Mitterrand,48.83025846,2.376310721
517,Ivry-sur-Seine,48.81398905,2.391686972
518,Vitry-sur-Seine,48.8002094,2.402712817
519,Les Ardoines,48.78250544,2.409541655
520,Choisy-le-Roi,48.76378681,2.411386726
521,Petit Jouy - Les Loges,48.77042521,2.146831645
522,Jouy-en-Josas,48.76477601,2.163947085
523,Vauboyen,48.75918899,2.192135806
524,Bièvres,48.75102328,2.215860853
525,Igny,48.74018152,2.230961125
526,Massy - Palaiseau,48.72469124,2.258277462
527,Massy - Verrières,48.73471659,2.273483464
528,Chemin d'Antony,48.7479419,2.312711009
529,Rungis - La Fraternelle,48.74058412,2.353307048
530,Pont de Rungis - Aéroport d'Orly,48.74834968,2.373111941
531,Orly-Ville,48.74187871,2.402908607
532,Les Saules,48.74507217,2.417520978
533,Villeneuve-le-Roi,48.7398307,2.426399822
534,Ablon,48.72553531,2.419565026
535,Athis-Mons,48.71262899,2.403633102
536,Juvisy,48.6894902,2.383019808
537,Savigny-sur-Orge,48.67644666,2.352481401
538,Longjumeau,48.70223939,2.294557746
539,Chilly-Mazarin,48.7006808,2.307841185
540,Gravigny-Balizy,48.68571363,2.317626404
541,Petit Vaux,48.67638132,2.333249463
542,Épinay-sur-Orge,48.66948373,2.332622929
543,Sainte-Geneviève-des-Bois,48.6528114,2.312736247
544,Saint-Michel-sur-Orge,48.63587587,2.306833164
545,Brétigny,48.60674495,2.302059692
546,La Norville - Saint-Germain-lès-Arpajon,48.59146082,2.266937971
547,Arpajon,48.58600789,2.241070078
548,Égly,48.5824856,2.222433312
549,Breuillet - Bruyères-le-Châtel,48.57750849,2.192063071
550,Breuillet-Village,48.56459703,2.170976268
551,Saint-Chéron,48.55109198,2.125707268
552,Sermaise,48.53580651,2.069381525
553,Dourdan,48.53373283,2.008771815
554,Dourdan - La Forêt,48.53562062,1.99590199
555,Marolles-en-Hurepoix,48.56559386,2.29092447
556,Bouray,48.5328901,2.290082514
557,Lardy,48.52040359,2.254739701
558,Chamarande,48.51424588,2.215517811
559,Étréchy,48.49364458,2.194581699
560,Étampes,48.43692394,2.159530588
561,Saint-Martin-d'Étampes,48.42736258,2.145246593
562,Creil,49.26394414,2.468914115
563,Chantilly - Gouvieux,49.18733354,2.459520081
564,Orry-la-Ville - Coye,49.13828638,2.490178985
565,La Borne Blanche,49.12678094,2.506143691
566,Survilliers - Fosses,49.09958694,2.525531714
567,Louvres,49.0493256,2.501758062
568,Les Noues,49.03318277,2.478033366
569,Goussainville,49.023162,2.462168962
570,Villiers-le-Bel - Gonesse - Arnouville,48.99377715,2.416187492
571,Garges - Sarcelles,48.97686859,2.390763933
572,Pierrefitte - Stains,48.96375543,2.372103134
573,Saint-Denis,48.93603061,2.345274685
574,Stade de France - Saint-Denis,48.91756717,2.350389538
575,Paris-Nord,48.88092201,2.356328544
576,Châtelet - Les Halles,48.86182227,2.347012689
577,Paris-Gare-de-Lyon,48.84413935,2.373259978
578,Maisons-Alfort - Alfortville,48.80204938,2.426482408
579,Le Vert de Maisons,48.7889149,2.432070117
580,Créteil-Pompadour,48.77126604,2.43530634
581,Villeneuve-Triage,48.74523081,2.438344241
582,Villeneuve-Saint-Georges,48.73011683,2.44613583
583,Montgeron - Crosne,48.70823783,2.462282242
584,Yerres,48.70661095,2.484245149
585,Brunoy,48.69973244,2.506078153
586,Boussy-Saint-Antoine,48.68101661,2.533130663
587,Combs-la-Ville - Quincy,48.66790196,2.547548049
588,Lieusaint - Moissy,48.62837555,2.569583548
589,Savigny-le-Temple - Nandy,48.59556384,2.58394771
590,Cesson,48.56494949,2.594551816
591,Le Mée,48.53877526,2.625522151
592,Vigneux-sur-Seine,48.70836643,2.41435888
593,Juvisy,48.6894902,2.383019808
594,Viry-Châtillon,48.67609243,2.386783797
595,Ris-Orangis,48.65897542,2.415206843
596,Grand Bourg-Val-de-Seine,48.64848911,2.435330529
597,Évry,48.63447902,2.452289895
598,Grigny-Centre,48.65396976,2.396176811
599,Orangis - Bois de l'Épine,48.63635137,2.407796283
600,Évry - Courcouronnes,48.62602243,2.428738982
601,Le Bras de Fer - Évry - Génopole,48.62333224,2.451409089
602,Corbeil-Essonnes,48.61342791,2.472933649
603,Essonnes - Robinson,48.60555583,2.462456494
604,Villabé,48.59262774,2.461806387
605,Le Plessis-Chenet,48.57380779,2.47946917
606,Le Coudray-Montceaux,48.56611782,2.492713003
607,Saint-Fargeau,48.56448587,2.542651823
608,Ponthierry - Pringy,48.53513977,2.544348952
609,Boissise-le-Roi,48.52974692,2.572073665
610,Vosves,48.51515145,2.599304273
611,Melun,48.52724332,2.654990282
612,Moulin-Galant,48.58715391,2.473490365
613,Mennecy,48.57059686,2.432098527
614,Ballancourt,48.53150199,2.3705185
615,La Ferté-Alais,48.48495738,2.351858421
616,Boutigny,48.43449061,2.376672817
617,Maisse,48.39364155,2.393410721
618,Buno - Gironville,48.37138329,2.387209797
619,Boigneville,48.34166355,2.378815445
620,Malesherbes,48.29359177,2.401133894
621,Haussmann - Saint-Lazare,48.87593315,2.325727961
622,Magenta,48.88091353,2.358833236
623,Rosa-Parks,48.89667381,2.374122976
624,Pantin,48.89811231,2.400361702
625,Noisy-le-Sec,48.89660444,2.461119311
626,Bondy,48.89401252,2.47979333
627,Le Raincy - Villemomble - Montfermeil,48.88907659,2.512566821
628,Gagny,48.88373428,2.525434251
629,Le Chénay-Gagny,48.87715784,2.55288165
630,Chelles - Gournay,48.87414408,2.583331155
631,Rosny-Bois-Perrier,48.88230401,2.481421257
632,Rosny-sous-Bois,48.86991242,2.485761142
633,Val de Fontenay,48.8543531,2.489137306
634,Nogent - Le Perreux,48.83934194,2.494188055
635,Les Boullereaux-Champigny,48.82484857,2.511855555
636,Villiers-sur-Marne - Le Plessis-Trévise,48.82326663,2.542679793
637,Les Yvris-Noisy-le-Grand,48.82315186,2.579837254
638,Émerainville - Pontault-Combault,48.80577037,2.619395786
639,Roissy-en-Brie,48.79565482,2.65038767
640,Ozoir-la-Ferrière,48.77077892,2.690252782
641,Gretz-Armainvilliers,48.74645232,2.727229371
642,Tournan,48.73948721,2.758824549
643,Asnières - Gennevilliers Les Courtilles,48.93027778,2.284166667
644,Le Luth,48.93138889,2.288055556
645,Le Village,48.93333333,2.294444444
646,Timbaud,48.93333333,2.300555556
647,Gare de Gennevilliers,48.93333333,2.307777778
648,Parc des Chanteraines,48.93388889,2.313611111
649,Chemin des Reniers,48.93444444,2.321388889
650,La Noue,48.935,2.327777778
651,Mairie de Villeneuve-la-Garenne,48.93555556,2.333333333
652,L'Île-Saint-Denis,48.93583333,2.339166667
653,Gare de Saint-Denis,48.93611111,2.346388889
654,Théâtre Gérard Philipe,48.9375,2.350277778
655,Marché de Saint-Denis,48.93861111,2.355833333
656,Basilique de Saint-Denis Hôtel de Ville,48.93805556,2.360833333
657,Cimetière de Saint-Denis,48.93638889,2.363888889
658,Hôpital Delafontaine,48.93361111,2.371111111
659,Cosmonautes,48.93166667,2.378055556
660,La Courneuve - Six Routes,48.93,2.384722222
661,Hôtel de Ville de La Courneuve,48.9275,2.392222222
662,Stade Géo André,48.92444444,2.401944444
663,Danton,48.92277778,2.406666667
664,La Courneuve - 8 Mai 1945,48.92083333,2.410555556
665,Maurice Lachâtre,48.91916667,2.413888889
666,Drancy-Avenir,48.91777778,2.417777778
667,Hôpital Avicenne,48.91583333,2.425555556
668,Gaston Roulaud,48.91416667,2.431388889
669,Escadrille Normandie-Niémen,48.91277778,2.435555556
670,La Ferme,48.90972222,2.4375
671,Libération,48.90694444,2.438611111
672,Hôtel de Ville de Bobigny Maison de la Culture,48.90666667,2.443888889
673,Bobigny - Pablo Picasso Préfecture - Hôtel du Département,48.90666667,2.45
674,Jean Rostand,48.90777778,2.454444444
675,Auguste Delaune,48.90666667,2.460555556
676,Pont de Bondy,48.905,2.469722222
677,Petit Noisy,48.90055556,2.465277778
678,Gare de Noisy-le-Sec,48.89583333,2.460277778
679,Pont de Bezons,48.92333333,2.2175
680,Parc Pierre Lagravère,48.91777778,2.224444444
681,Victor Basch,48.91416667,2.229444444
682,Jacqueline Auriol,48.91055556,2.234166667
683,Charlebourg,48.90805556,2.237777778
684,Les Fauvelles,48.9025,2.239444444
685,Faubourg de l'Arche,48.89666667,2.24
686,La Défense Grande Arche,48.89277778,2.237222222
687,Puteaux,48.88333333,2.233888889
688,Belvédère,48.87583333,2.225833333
689,Suresnes-Longchamp,48.86805556,2.221388889
690,Les Coteaux,48.85694444,2.220555556
691,Les Milons,48.84972222,2.221111111
692,Parc de Saint-Cloud,48.84305556,2.221944444
693,Musée de Sèvres,48.82833333,2.225555556
694,Brimborion,48.82222222,2.231388889
695,Meudon-sur-Seine,48.81916667,2.239444444
696,Les Moulineaux,48.82138889,2.251388889
697,Jacques-Henri Lartigue,48.82472222,2.260555556
698,Issy - Val de Seine,48.82972222,2.263055556
699,Henri Farman Porte de Seine,48.83472222,2.270555556
700,Suzanne Lenglen Éliane Jeannin-Garreau,48.83305556,2.277222222
701,Porte d'Issy,48.83194444,2.281111111
702,Porte de Versailles Parc des Expositions,48.83194444,2.2875
703,Pont du Garigliano Hôpital Européen Georges-Pompidou,48.83805556,2.271111111
704,Balard,48.83611111,2.278333333
705,Desnouettes,48.83444444,2.283888889
706,Porte de Versailles Parc des Expositions,48.83277778,2.288055556
707,Georges Brassens,48.82972222,2.295555556
708,Brancion,48.82861111,2.300833333
709,Porte de Vanves,48.8275,2.306666667
710,Didot,48.82583333,2.313333333
711,Jean Moulin,48.82472222,2.318888889
712,Porte d'Orléans,48.82305556,2.325555556
713,Montsouris,48.82138889,2.333333333
714,Cité Universitaire,48.82027778,2.338611111
715,Stade Charléty Porte de Gentilly,48.81944444,2.345833333
716,Poterne des Peupliers,48.82083333,2.350833333
717,Porte d'Italie,48.81916667,2.360277778
718,Porte de Choisy,48.81972222,2.363888889
719,Porte d'Ivry,48.82166667,2.37
720,Maryse Bastié,48.82416667,2.376944444
721,Avenue de France,48.82555556,2.381111111
722,Baron Le Roy,48.82944444,2.390277778
723,Porte de Charenton,48.83166667,2.397777778
724,Porte Dorée,48.83555556,2.406666667
725,Montempoivre,48.84055556,2.409166667
726,Alexandra David-Néel,48.84416667,2.410277778
727,Porte de Vincennes,48.84694444,2.410277778
728,Porte de Vincennes,48.84722222,2.410277778
729,Porte de Montreuil,48.85361111,2.410555556
730,Marie de Miribel,48.85694444,2.41
731,Porte de Bagnolet,48.86444444,2.408888889
732,Séverine,48.86944444,2.408888889
733,Adrienne Bolland,48.87277778,2.408611111
734,Porte des Lilas,48.87722222,2.406666667
735,Hôpital Robert-Debré,48.87888889,2.401666667
736,Butte du Chapeau Rouge,48.88416667,2.396944444
737,Porte de Pantin Parc de la Villette,48.88861111,2.395833333
738,Delphine Seyrig,48.89361111,2.398055556
739,Ella Fitzgerald Grands Moulins de Pantin,48.8975,2.395
740,Porte de la Villette Cité des Sciences et de l'Industrie,48.8975,2.386111111
741,Canal Saint-Denis,48.89888889,2.381666667
742,Rosa-Parks,48.89694444,2.373333333
743,Porte d'Aubervilliers,48.89861111,2.368333333
744,Colette Besson,48.89861111,2.364444444
745,Porte de la Chapelle,48.89861111,2.359166667
746,Diane Arbus Porte des Poissonniers,48.89833333,2.351666667
747,Porte de Clignancourt Puces de Saint-Ouen,48.89805556,2.345277778
748,Angélique Compoint Porte de Montmartre,48.89777778,2.338333333
749,Porte de Saint-Ouen,48.89777778,2.33
750,Épinettes - Pouchet,48.8975,2.323611111
751,Honoré de Balzac,48.89638889,2.318888889
752,Porte de Clichy Tribunal de Paris,48.89472222,2.314166667
753,Porte d'Asnières - Marguerite Long,48.88972222,2.303333333
754,Bondy,48.89416667,2.480277778
755,La Remise à Jorelle,48.89305556,2.4875
756,Les Coquetiers,48.8925,2.499444444
757,Allée de la Tour - Rendez-Vous,48.89694444,2.506388889
758,Les Pavillons-sous-Bois,48.9025,2.511666667
759,GarganN 4,48.90833333,2.516944444
760,Lycée Henri Sellier,48.91611111,2.515
761,L'Abbaye,48.92194444,2.516388889
762,Freinville - Sevran,48.92666667,2.519166667
763,Rougemont - Chanteloup,48.93083333,2.515277778
764,Aulnay-sous-Bois,48.93194444,2.496388889
765,Marché de Saint-Denis,48.93861111,2.355833333
766,Baudelaire,48.94222222,2.356666667
767,Roger Sémat,48.94444444,2.356944444
768,Guynemer Stade Auguste Delaune,48.94805556,2.3575
769,Petit Pierrefitte,48.9525,2.358055556
770,Joncherolles,48.95555556,2.358333333
771,Suzanne Valadon,48.95916667,2.358888889
772,Mairie de Pierrefitte,48.96333333,2.359722222
773,Alcide d'Orbigny,48.96555556,2.363333333
774,Jacques Prévert,48.97111111,2.366111111
775,Butte Pinson Parc Régional,48.97388889,2.366111111
776,Les Cholettes,48.9775,2.371388889
777,Les Flanades,48.97666667,2.377222222
778,Paul Valéry,48.97916667,2.379722222
779,Lochères,48.97833333,2.385555556
780,Garges - Sarcelles,48.97666667,2.390555556
781,Châtillon - Montrouge,48.81055556,2.301944444
782,Vauban,48.80694444,2.293611111
783,Centre de Châtillon,48.80388889,2.288611111
784,Parc André Malraux,48.80083333,2.283333333
785,Division Leclerc,48.79416667,2.271944444
786,Soleil Levant,48.79,2.262777778
787,Hôpital Béclère,48.78694444,2.255277778
788,Mail de la Plaine,48.78333333,2.246388889
789,Pavé Blanc Parc Novéos,48.78055556,2.239444444
790,Georges Pompidou,48.78527778,2.237777778
791,Georges Millandy,48.7825,2.228611111
792,Meudon-la-Forêt,48.78388889,2.224722222
793,Vélizy 2,48.785,2.218888889
794,Dewoitine,48.78388889,2.215555556
795,Inovel Parc Nord,48.78083333,2.207777778
796,Louvois,48.78,2.196388889
797,Mairie de Vélizy,48.78055556,2.188888889
798,L'Onde Maison des Arts,48.78166667,2.181388889
799,Robert Wagner,48.78638889,2.179444444
800,Viroflay-Rive-Gauche,48.80055556,2.171388889
801,Viroflay-Rive-Droite,48.80555556,2.168333333
802,Villejuif - Louis Aragon,48.78722222,2.3675
803,Lamartine,48.7825,2.367222222
804,Domaine Chérioux,48.77888889,2.367222222
805,Moulin Vert,48.77222222,2.367777778
806,Bretagne,48.76833333,2.368055556
807,Auguste Perret Cimetière Parisien,48.76361111,2.368055556
808,Porte de Thiais Marché International,48.75972222,2.366388889
809,La Belle Épine,48.75666667,2.368611111
810,Place de la Logistique Plateforme Sogaris,48.75305556,2.361944444
811,Porte de Rungis,48.7525,2.355
812,Saarinen Parc Silic Nord,48.75027778,2.354166667
813,Robert Schuman Parc Silic Centre,48.74666667,2.353055556
814,La Fraternelle,48.74166667,2.352777778
815,Hélène Boucher Orlytech,48.73972222,2.3625
816,Caroline Aigle Orlyfret,48.73666667,2.369722222
817,Cœur d'Orly,48.73222222,2.371944444
818,Aéroport d'Orly,48.72888889,2.368333333
819,Athis-Mons - Porte de l'Essonne,48.71416667,2.371666667
820,Saint-Denis - Porte de Paris,48.92972222,2.358055556
821,Pierre De Geyter,48.9325,2.351944444
822,Saint-Denis - Gare,48.93555556,2.3475
823,Paul Éluard,48.94,2.345277778
824,Delaunay-Belleville,48.94583333,2.347222222
825,César,48.94944444,2.3425
826,Jean Vilar,48.95333333,2.343611111
827,Pablo Neruda,48.95666667,2.343888889
828,Villetaneuse-Université,48.95944444,2.341944444
829,Blumenthal,48.94805556,2.338611111
830,Les Mobiles,48.95,2.328888889
831,Les Béatus,48.95166667,2.320277778
832,Rose Bertin Centre commercial l'Ilo,48.95305556,2.315555556
833,Lacépède,48.95527778,2.312222222
834,Gilbert Bonnemaison,48.95527778,2.308055556
835,Épinay-sur-Seine,48.95583333,2.301944444
836,Épinay-Orgemont,48.95555556,2.295833333
837,Épinay-sur-Seine,48.95416667,2.302222222
838,Épinay - Villetaneuse Montmagny,48.95861111,2.328055556
839,Villetaneuse-Université,48.96,2.341388889
840,Pierrefitte - Stains,48.96194444,2.369722222
841,Stains-La Cerisaie,48.95472222,2.391666667
842,Dugny - La Courneuve Parc Georges Valbon,48.94416667,2.410833333
843,Le Bourget,48.93055556,2.424444444
844,Paris-Nord,48.88092201,2.356328544
845,Saint-Denis,48.93603061,2.345274685
846,Épinay - Villetaneuse Montmagny,48.9582696,2.328245016
847,Deuil - Montmagny,48.97605425,2.338524071
848,Groslay,48.98431596,2.353407249
849,Sarcelles - Saint-Brice,48.99600683,2.368684563
850,Écouen - Ézanville,49.02320638,2.36222298
851,Domont,49.03297205,2.33682969
852,Bouffémont - Moisselles,49.04516946,2.322917846
853,Montsoult - Maffliers,49.0662887,2.322920457
854,Villaines,49.07947023,2.350830831
855,Belloy - Saint-Martin,49.09840027,2.361270557
856,Viarmes,49.11662788,2.368253546
857,Seugy,49.11902265,2.399724854
858,Luzarches,49.11713213,2.420107034
859,Presles-Courcelles,49.11406195,2.287915344
860,Nointel - Mours,49.1325777,2.28051537
861,La Barre - Ormesson,48.96632654,2.316582071
862,Enghien-les-Bains,48.97274912,2.307137033
863,Champ de courses d'Enghien Commune de Soisy-sous-Montmorency,48.97944798,2.292477132
864,Ermont - Eaubonne,48.9806461,2.272084773
865,Ermont-Halte,48.99065125,2.263182621
866,Gros Noyer - Saint-Prix,48.99609884,2.259655619
867,Saint-Leu-la-Forêt,49.01558497,2.242479111
868,Vaucelles,49.02177396,2.229376488
869,Taverny,49.02477855,2.222727322
870,Bessancourt,49.03531131,2.210246521
871,Frépillon,49.04543025,2.197087678
872,Méry-sur-Oise,49.05804782,2.191244762
873,Mériel,49.07769905,2.205446728
874,Valmondois,49.09107345,2.201823484
875,Cernay,48.9850047,2.257474156
876,Franconville - Le Plessis-Bouchard,48.99371348,2.234276395
877,Montigny - Beauchamp,49.0074233,2.197619807
878,Pierrelaye,49.01913674,2.154663477
879,Saint-Ouen-l'Aumône-Liesse,49.03398764,2.128263873
880,Saint-Ouen-l'Aumône,49.04531165,2.10511071
881,Pontoise,49.04664576,2.095195067
882,Épluches,49.05510176,2.122735907
883,Pont-Petit,49.06059168,2.130874134
884,Chaponval,49.06931414,2.141696934
885,Auvers-sur-Oise,49.07046236,2.175304206
886,L'Isle-Adam - Parmain,49.11478397,2.210019869
887,"Champagne-sur-Oise	",49.13600056,2.242677777
888,"Persan - Beaumont	",49.14771951,2.277823195
889,Bruyères-sur-Oise,49.15518986,2.325753995
890,Boran-sur-Oise,49.16677504,2.362303529
891,Précy-sur-Oise,49.20326573,2.376601177
892,"Saint-Leu-d'Esserent	",49.21385632,2.417369391
893,Creil,49.26394414,2.468914115
894,Mantes-la-Jolie,48.98950251,1.703016134
895,Mantes-Station,48.98365451,1.715210986
896,Limay,48.98417276,1.747786183
897,Issou - Porcheville,48.97929225,1.783973408
898,Gargenville,48.98297976,1.808907826
899,Juziers,48.99224128,1.845134445
900,Meulan - Hardricourt,49.00576254,1.901781979
901,Thun-le-Paradis,49.00670028,1.919237112
902,Vaux-sur-Seine,49.00712725,1.963551772
903,Triel-sur-Seine,48.98107191,2.005930892
904,Chanteloup-les-Vignes,48.97036693,2.027518776
905,Andrésy,48.97482086,2.049083121
906,Maurecourt,48.98705655,2.059787827
907,Conflans-Fin-d'Oise,48.99189837,2.07362062
908,Gisors,49.28526352,1.785066223
909,Trie-Château,49.28258973,1.818082383
910,Chaumont-en-Vexin,49.2613223,1.872589468
911,Liancourt-Saint-Pierre,49.22080705,1.905299062
912,Lavilletertre,49.2026936,1.920547706
913,Chars,49.16267058,1.936928634
914,Santeuil - Le Perchay,49.12345185,1.949332682
915,Us,49.09965012,1.970535724
916,Montgeroult - Courcelles,49.08049371,2.003715372
917,Boissy-l'Aillerie,49.07584288,2.024952931
918,Osny,49.06296968,2.057902991
919,Pontoise,49.04664576,2.095195067
920,Saint-Ouen-l'Aumône-Quartier de l'Église,49.03998131,2.103852696
921,Éragny - Neuville,49.01834916,2.090906063
922,Conflans-Sainte-Honorine,48.99663009,2.097773988
923,Herblay,48.99029,2.161906606
924,La Frette - Montigny,48.98026352,2.180012381
925,Cormeilles-en-Parisis,48.96849627,2.193442868
926,Val-d'Argenteuil,48.95030435,2.231110035
927,Ermont - Eaubonne,48.9806461,2.272084773
928,Sannois,48.97051992,2.26392496
929,Argenteuil,48.94679694,2.257897483
930,Le Stade,48.93105423,2.260602316
931,Colombes,48.92391863,2.259345703
932,Bois-Colombes,48.91424647,2.27159875
933,Asnières-sur-Seine,48.90566395,2.28357281
934,Paris-Saint-Lazare,48.87593315,2.325727961
935,Vernon - Giverny,49.09111111,1.478333333
936,Bonnières,49.03861111,1.581388889
937,Rosny-sur-Seine,48.99722222,1.630833333
938,Épône - Mézières,48.96334411,1.809094509
939,Aubergenville-Élisabethville,48.97214168,1.848348808
940,Les Mureaux,48.99259196,1.913530507
941,Les Clairières de Verneuil,48.99261388,1.955479248
942,Vernouillet - Verneuil,48.98144597,1.983143352
943,Villennes-sur-Seine,48.93948681,1.99960361
944,Poissy,48.93326541,2.04107229
945,Houilles - Carrières-sur-Seine,48.92037937,2.185353376
946,Paris-Nord,48.88092201,2.356328544
947,Aulnay-sous-Bois,48.93219601,2.495513141
948,Mitry - Claye,48.97585875,2.642406302
949,Compans,48.9913914,2.665059869
950,Thieux - Nantouillet,49.00811402,2.680252455
951,Dammartin - Juilly - Saint-Mard,49.03257409,2.699453088
952,Le Plessis-Belleville,49.09612081,2.744686207
953,Nanteuil-le-Haudouin,49.1428842,2.79445455
954,Ormoy-Villers,49.20087708,2.838108478
955,Crépy-en-Valois,49.23101806,2.887366705
956,Cergy-le-Haut,49.0478762,2.01099976
957,Cergy-Saint-Christophe,49.04964701,2.034294463
958,Cergy-Préfecture,49.03646398,2.079534941
959,Neuville-Université,49.01413369,2.078306591
960,Conflans-Fin-d'Oise,48.99189837,2.07362062
961,Achères-Ville,48.97066505,2.077731766
962,Maisons-Laffitte,48.94579593,2.144558757
963,Sartrouville,48.93773606,2.157086495
964,Houilles - Carrières-sur-Seine,48.92037937,2.185353376
965,Nanterre-Université,48.90165507,2.215155873
966,La Garenne-Colombes,48.90963293,2.239684117
967,Les Vallées,48.91363686,2.257326014
968,Versailles-Rive-Droite,48.80948226,2.135087457
969,Montreuil,48.80637745,2.151500115
970,Viroflay-Rive-Droite,48.80549303,2.168520397
971,Chaville-Rive-Droite,48.81257172,2.188259859
972,Sèvres - Ville-d'Avray,48.82723877,2.200721257
973,Saint-Nom-la-Bretèche - Forêt de Marly,48.8677921,2.050767845
974,L'Étang-la-Ville,48.86806442,2.076719103
975,Marly-le-Roi,48.8715031,2.096548253
976,Louveciennes,48.86121453,2.123191096
977,Bougival,48.8542517,2.132132445
978,La Celle-Saint-Cloud,48.84271996,2.138125057
979,Vaucresson,48.83664332,2.152697403
980,Garches - Marnes-la-Coquette,48.83828255,2.187110714
981,Saint-Cloud,48.84610295,2.217621081
982,Le Val d'Or,48.85641999,2.216572238
983,Suresnes-Mont-Valérien,48.87171419,2.221029548
984,Puteaux,48.88336234,2.233781681
985,La Défense Grande Arche,48.89218708,2.237018056
986,Courbevoie,48.89811887,2.247942844
987,Bécon-les-Bruyères,48.90576266,2.269964779
988,Asnières-sur-Seine,48.90566395,2.28357281
989,Clichy - Levallois,48.89763745,2.297419948
990,Pont-Cardinet,48.88822016,2.313732452
991,Paris-Saint-Lazare,48.87593315,2.325727961
992,Noisy-le-Roi,48.84135964,2.061326813
993,Mareil-Marly,48.88099208,2.079177591
994,Saint-Germain-en-Laye-Bel-Air - Fourqueux,48.89460763,2.069937965
995,Saint-Germain-en-Laye-Grande-Ceinture,48.90320462,2.072971457
996,Paris-Montparnasse,48.84118692,2.320509228
997,Vanves - Malakoff,48.81838764,2.292061817
998,Clamart,48.81423945,2.274489674
999,Meudon,48.81488431,2.240919295
1000,Bellevue,48.8189478,2.229808006
1001,Sèvres-Rive-Gauche,48.82121704,2.214859791
1002,Chaville-Rive-Gauche,48.80468336,2.188630276
1003,Viroflay-Rive-Gauche,48.80071846,2.171389814
1004,Versailles-Chantiers,48.79528025,2.13605049
1005,Saint-Cyr,48.79870764,2.071847
1006,Fontenay-le-Fleury,48.80724661,2.040519203
1007,Villepreux - Les Clayes,48.82365327,1.992864532
1008,Plaisir - Les Clayes,48.83095953,1.960026563
1009,Plaisir - Grignon,48.83191618,1.944401753
1010,Villiers - Neauphle - Pontchartrain,48.81532862,1.877504204
1011,Montfort-l'Amaury - Méré,48.80260198,1.816466794
1012,Garancières - La Queue,48.81040246,1.765056758
1013,Orgerus - Béhoust,48.82657843,1.703218425
1014,Tacoignières - Richebourg,48.82942902,1.669010163
1015,Houdan,48.79602537,1.602701693
1016,Marchezais - Broué,48.76842178,1.513333052
1017,Dreux,48.73095467,1.369974234
1018,Beynes,48.85999873,1.87559559
1019,Mareil-sur-Mauldre,48.8932386,1.871738474
1020,Maule,48.90930537,1.857227541
1021,Nézel - Aulnay,48.93871924,1.840517032
1022,Épône - Mézières,48.96334411,1.809094509
1023,Mantes-la-Jolie,48.98950251,1.703016134
1024,Saint-Quentin-en-Yvelines Montigny-le-Bretonneux,48.78739024,2.04462199
1025,Trappes,48.77480281,2.006566872
1026,La Verrière,48.75538927,1.9438352
1027,Coignières,48.74348399,1.9210366
1028,Les Essarts-le-Roi,48.72191596,1.890004565
1029,Le Perray,48.69309659,1.856592065
1030,Rambouillet,48.64422195,1.83293547
1031,Paris-Est,48.87737562,2.359456617
1032,Chelles - Gournay,48.87414408,2.583331155
1033,Vaires - Torcy,48.87520827,2.637590721
1034,Lagny - Thorigny,48.88218914,2.706014181
1035,Esbly,48.90307292,2.810248219
1036,Montry - Condé,48.8908568,2.826405499
1037,Couilly - Saint-Germain - Quincy,48.88268104,2.854315928
1038,Villiers - Montbarbin,48.86329024,2.883201726
1039,Crécy-la-Chapelle,48.85955732,2.905736963
1040,Meaux,48.95726886,2.873448189
1041,Trilport,48.96022649,2.950060383
1042,Changis - Saint-Jean,48.95916406,3.026111296
1043,La Ferté-sous-Jouarre,48.95081999,3.124909022
1044,Nanteuil - Saâcy,48.97402658,3.219302813
1045,Nogent-l'Artaud - Charly,48.96927878,3.321886817
1046,Chézy-sur-Marne,48.99193822,3.364927129
1047,Château-Thierry,49.03794894,3.409597361
1048,Isles - Armentières - Congis,48.99841539,3.007953056
1049,Lizy-sur-Ourcq,49.02175727,3.031758446
1050,Crouy-sur-Ourcq,49.091883,3.062690406
1051,Mareuil-sur-Ourcq,49.13547414,3.075626564
1052,La Ferté-Milon,49.17950495,3.120612917
1053,Tournan,48.73948721,2.758824549
1054,Marles-en-Brie,48.7349393,2.86895583
1055,Mortcerf,48.78949668,2.907387272
1056,Guérard - La Celle-sur-Morin,48.81077532,2.953730384
1057,Faremoutiers - Pommeuse,48.80865396,2.993109893
1058,Mouroux,48.81379848,3.042938267
1059,Chailly - Boissy-le-Châtel,48.81444444,3.151944444
1060,Chauffry,48.81527778,3.171111111
1061,Saint-Siméon,48.79916667,3.208611111
1062,Saint-Rémy-la-Vanne,48.52914897,3.255368151
1063,Jouy-sur-Morin - Champgoulin,48.95081999,3.124909022
1064,Jouy-sur-Morin - Eustache,48.79083333,3.273888889
1065,Jouy-sur-Morin - Monument,48.79083333,3.273888889
1066,La Ferté-Gaucher,48.78222222,3.297777778
1067,La Ferté-Gaucher - Centre,48.78222222,3.297777778
1068,Verneuil-l'Étang,48.64437362,2.825169934
1069,Mormant,48.61401524,2.888252893
1070,Nangis,48.56212484,3.011769324
1071,Longueville,48.51375459,3.250034983
1072,Sainte-Colombe - Septveilles,48.52914897,3.255368151
1073,Champbenoist - Poigny,48.54559535,3.287312848
1074,Provins,48.55559156,3.302871223
1075,Paris-Gare-de-Lyon,48.84413935,2.373259978
1076,Melun,48.52724332,2.654990282
1077,Bois-le-Roi,48.47552307,2.692033264
1078,Fontainebleau-Forêt,48.44777778,2.729444444
1079,Fontainebleau - Avon,48.41637703,2.726661533
1080,Thomery,48.39430844,2.764028187
1081,Moret-Veneux-les-Sablons,48.37853492,2.79888308
1082,Saint-Mammès,48.38235801,2.815956767
1083,Montereau,48.3795261,2.942523413
1084,Montigny-sur-Loing,48.33648178,2.738001624
1085,Bourron-Marlotte - Grez,48.33268364,2.692480191
1086,Nemours - Saint-Pierre,48.26775811,2.685647093
1087,Bagneaux-sur-Loing,48.22954994,2.703936052
1088,Souppes - Château-Landon,48.18093686,2.736249843
1089,Dordives,48.14721804,2.762728387
1090,Ferrières - Fontenay,48.09650278,2.772302618
1091,Montargis,48.0070317,2.743038313
1092,Livry-sur-Seine,48.51026518,2.678973983
1093,Chartrettes,48.4870764,2.695037314
1094,Fontaine-le-Port,48.48722288,2.751153658
1095,Héricy,48.44288206,2.760926734
1096,Vulaines-sur-Seine - Samoreau,48.43097072,2.753177568
1097,Champagne-sur-Seine,48.40680563,2.799233558
1098,Vernou-sur-Seine,48.38677099,2.84203739
1099,La Grande-Paroisse,48.37879576,2.897201782
1100,La Verrière,48.75538927,1.9438352
1101,Trappes,48.77480281,2.006566872
1102,Saint-Quentin-en-Yvelines Montigny-le-Bretonneux,48.78739024,2.04462199
1103,Saint-Cyr,48.79870764,2.071847
1104,Versailles-Chantiers,48.79528025,2.13605049
1105,Chaville-Rive-Droite,48.81257172,2.188259859
1106,Sèvres - Ville-d'Avray,48.82723877,2.200721257
1107,Saint-Cloud,48.84610295,2.217621081
1108,Suresnes-Mont-Valérien,48.87171419,2.221029548
1109,Puteaux,48.88336234,2.233781681
1110,La Défense Grande Arche,48.89218708,2.237018056